[
  {
    "id": "frys_Q00598",
    "retailer": "Frys",
    "machine_id": "Q00598",
    "name": "Frys",
    "address": "5140 W Baseline Rd",
    "city": "Laveen Village",
    "state": "AZ",
    "zip_code": "",
    "latitude": 0.0,
    "longitude": 0.0,
    "type": "grocery",
    "last_verified": "2024-01-15",
    "is_active": true
  },
  {
    "id": "safeway_Q01290",
    "retailer": "Safeway",
    "machine_id": "Q01290",
    "name": "Safeway",
    "address": "5035 W Baseline Rd",
    "city": "Laveen Village",
    "state": "AZ",
    "zip_code": "",
    "latitude": 0.0,
    "longitude": 0.0,
    "type": "grocery",
    "last_verified": "2024-01-15",
    "is_active": true
  },
  {
    "id": "safeway_Q01348",
    "retailer": "Safeway",
    "machine_id": "Q01348",
    "name": "Safeway",
    "address": "40950 N Ironwood Dr",
    "city": "Queen Creek",
    "state": "AZ",
    "zip_code": "",
    "latitude": 0.0,
    "longitude": 0.0,
    "type": "grocery",
    "last_verified": "2024-01-15",
    "is_active": true
  },
  {
    "id": "frys_Q00424",
    "retailer": "Frys",
    "machine_id": "Q00424",
    "name": "Frys",
    "address": "10450 N 90th St",
    "city": "Scottsdale",
    "state": "AZ",
    "zip_code": "",
    "latitude": 0.0,
    "longitude": 0.0,
    "type": "grocery",
    "last_verified": "2024-01-15",
    "is_active": true
  },
  {
    "id": "safeway_Q01340",
    "retailer": "Safeway",
    "machine_id": "Q01340",
    "name": "Safeway",
    "address": "6501 E Greenway Pkwy Bldg 4",
    "city": "Scottsdale",
    "state": "AZ",
    "zip_code": "",
    "latitude": 0.0,
    "longitude": 0.0,
    "type": "grocery",
    "last_verified": "2024-01-15",
    "is_active": true
  },
  {
    "id": "safeway_Q01350",
    "retailer": "Safeway",
    "machine_id": "Q01350",
    "name": "Safeway",
    "address": "7920 E Chaparral Rd",
    "city": "Scottsdale",
    "state": "AZ",
    "zip_code": "",
    "latitude": 0.0,
    "longitude": 0.0,
    "type": "grocery",
    "last_verified": "2024-01-15",
    "is_active": true
  },
  {
    "id": "frys_Q00345",
    "retailer": "Frys",
    "machine_id": "Q00345",
    "name": "Frys",
    "address": "13982 W Waddell Rd",
    "city": "Surprise",
    "state": "AZ",
    "zip_code": "",
    "latitude": 0.0,
    "longitude": 0.0,
    "type": "grocery",
    "last_verified": "2024-01-15",
    "is_active": true
  },
  {
    "id": "safeway_Q01296",
    "retailer": "Safeway",
    "machine_id": "Q01296",
    "name": "Safeway",
    "address": "13828 W Waddell Rd",
    "city": "Surprise",
    "state": "AZ",
    "zip_code": "",
    "latitude": 0.0,
    "longitude": 0.0,
    "type": "grocery",
    "last_verified": "2024-01-15",
    "is_active": true
  },
  {
    "id": "safeway_Q00918",
    "retailer": "Safeway",
    "machine_id": "Q00918",
    "name": "Safeway",
    "address": "2550 Bell Rd",
    "city": "Auburn",
    "state": "CA",
    "zip_code": "",
    "latitude": 0.0,
    "longitude": 0.0,
    "type": "grocery",
    "last_verified": "2024-01-15",
    "is_active": true
  },
  {
    "id": "vons_Q00511",
    "retailer": "Vons",
    "machine_id": "Q00511",
    "name": "Vons",
    "address": "11800 De Palma Rd",
    "city": "Corona",
    "state": "CA",
    "zip_code": "",
    "latitude": 0.0,
    "longitude": 0.0,
    "type": "retail",
    "last_verified": "2024-01-15",
    "is_active": true
  },
  {
    "id": "lucky_Q01758",
    "retailer": "Lucky",
    "machine_id": "Q01758",
    "name": "Lucky",
    "address": "1000 El Cerrito Plaza",
    "city": "El Cerrito",
    "state": "CA",
    "zip_code": "",
    "latitude": 0.0,
    "longitude": 0.0,
    "type": "retail",
    "last_verified": "2024-01-15",
    "is_active": true
  },
  {
    "id": "vons_Q00699",
    "retailer": "Vons",
    "machine_id": "Q00699",
    "name": "Vons",
    "address": "311 W Los Feliz Rd",
    "city": "Glendale",
    "state": "CA",
    "zip_code": "",
    "latitude": 0.0,
    "longitude": 0.0,
    "type": "retail",
    "last_verified": "2024-01-15",
    "is_active": true
  },
  {
    "id": "vons_Q01245",
    "retailer": "Vons",
    "machine_id": "Q01245",
    "name": "Vons",
    "address": "163 S Turnpike Rd",
    "city": "Goleta",
    "state": "CA",
    "zip_code": "",
    "latitude": 0.0,
    "longitude": 0.0,
    "type": "retail",
    "last_verified": "2024-01-15",
    "is_active": true
  },
  {
    "id": "pavilions_Q00512",
    "retailer": "Pavilions",
    "machine_id": "Q00512",
    "name": "Pavilions",
    "address": "4365 Glencoe Ave",
    "city": "Marina del Rey",
    "state": "CA",
    "zip_code": "",
    "latitude": 0.0,
    "longitude": 0.0,
    "type": "retail",
    "last_verified": "2024-01-15",
    "is_active": true
  },
  {
    "id": "vons_Q01738",
    "retailer": "Vons",
    "machine_id": "Q01738",
    "name": "Vons",
    "address": "2495 Truxtun Rd Ste 28",
    "city": "San Diego",
    "state": "CA",
    "zip_code": "",
    "latitude": 0.0,
    "longitude": 0.0,
    "type": "retail",
    "last_verified": "2024-01-15",
    "is_active": true
  },
  {
    "id": "winco foods_Q01325",
    "retailer": "WinCo Foods",
    "machine_id": "Q01325",
    "name": "WinCo Foods",
    "address": "2850 Pavilion Pkwy",
    "city": "Tracy",
    "state": "CA",
    "zip_code": "",
    "latitude": 0.0,
    "longitude": 0.0,
    "type": "grocery",
    "last_verified": "2024-01-15",
    "is_active": true
  },
  {
    "id": "king soopers_Q00443",
    "retailer": "King Soopers",
    "machine_id": "Q00443",
    "name": "King Soopers",
    "address": "10406 M.L.K. Jr Blvd",
    "city": "Denver",
    "state": "CO",
    "zip_code": "",
    "latitude": 0.0,
    "longitude": 0.0,
    "type": "retail",
    "last_verified": "2024-01-15",
    "is_active": true
  },
  {
    "id": "safeway_Q00277",
    "retailer": "Safeway",
    "machine_id": "Q00277",
    "name": "Safeway",
    "address": "3851 S Hwy 74",
    "city": "Evergreen",
    "state": "CO",
    "zip_code": "",
    "latitude": 0.0,
    "longitude": 0.0,
    "type": "grocery",
    "last_verified": "2024-01-15",
    "is_active": true
  },
  {
    "id": "king soopers_Q00108",
    "retailer": "King Soopers",
    "machine_id": "Q00108",
    "name": "King Soopers",
    "address": "2205 W Wildcat Reserve Pkwy",
    "city": "Highlands Ranch",
    "state": "CO",
    "zip_code": "",
    "latitude": 0.0,
    "longitude": 0.0,
    "type": "retail",
    "last_verified": "2024-01-15",
    "is_active": true
  },
  {
    "id": "king soopers_Q00274",
    "retailer": "King Soopers",
    "machine_id": "Q00274",
    "name": "King Soopers",
    "address": "8673 S Quebec St",
    "city": "Highlands Ranch",
    "state": "CO",
    "zip_code": "",
    "latitude": 0.0,
    "longitude": 0.0,
    "type": "retail",
    "last_verified": "2024-01-15",
    "is_active": true
  },
  {
    "id": "king soopers_Q00431",
    "retailer": "King Soopers",
    "machine_id": "Q00431",
    "name": "King Soopers",
    "address": "4000 Red Cedar Dr",
    "city": "Highlands Ranch",
    "state": "CO",
    "zip_code": "",
    "latitude": 0.0,
    "longitude": 0.0,
    "type": "retail",
    "last_verified": "2024-01-15",
    "is_active": true
  },
  {
    "id": "king soopers_Q00102",
    "retailer": "King Soopers",
    "machine_id": "Q00102",
    "name": "King Soopers",
    "address": "8126 S Wadsworth Blvd",
    "city": "Littleton",
    "state": "CO",
    "zip_code": "",
    "latitude": 0.0,
    "longitude": 0.0,
    "type": "retail",
    "last_verified": "2024-01-15",
    "is_active": true
  },
  {
    "id": "acme markets_Q01982",
    "retailer": "Acme Markets",
    "machine_id": "Q01982",
    "name": "Acme Markets",
    "address": "1 University Dr",
    "city": "Newark",
    "state": "DE",
    "zip_code": "",
    "latitude": 0.0,
    "longitude": 0.0,
    "type": "retail",
    "last_verified": "2024-01-15",
    "is_active": true
  },
  {
    "id": "kroger_Q00602",
    "retailer": "Kroger",
    "machine_id": "Q00602",
    "name": "Kroger",
    "address": "3330 Cobb Pkwy NW",
    "city": "Acworth",
    "state": "GA",
    "zip_code": "",
    "latitude": 0.0,
    "longitude": 0.0,
    "type": "retail",
    "last_verified": "2024-01-15",
    "is_active": true
  },
  {
    "id": "kroger_Q00809",
    "retailer": "Kroger",
    "machine_id": "Q00809",
    "name": "Kroger",
    "address": "12870 GA-9 N",
    "city": "Alpharetta",
    "state": "GA",
    "zip_code": "",
    "latitude": 0.0,
    "longitude": 0.0,
    "type": "retail",
    "last_verified": "2024-01-15",
    "is_active": true
  },
  {
    "id": "kroger_Q01261",
    "retailer": "Kroger",
    "machine_id": "Q01261",
    "name": "Kroger",
    "address": "227 Sandy Springs Pl NE",
    "city": "Atlanta",
    "state": "GA",
    "zip_code": "",
    "latitude": 0.0,
    "longitude": 0.0,
    "type": "retail",
    "last_verified": "2024-01-15",
    "is_active": true
  },
  {
    "id": "kroger_Q01063",
    "retailer": "Kroger",
    "machine_id": "Q01063",
    "name": "Kroger",
    "address": "3855 Buford Hwy NE",
    "city": "Brookhaven",
    "state": "GA",
    "zip_code": "",
    "latitude": 0.0,
    "longitude": 0.0,
    "type": "retail",
    "last_verified": "2024-01-15",
    "is_active": true
  },
  {
    "id": "kroger_Q01255",
    "retailer": "Kroger",
    "machine_id": "Q01255",
    "name": "Kroger",
    "address": "1745 Hwy 138 SE",
    "city": "Conyers",
    "state": "GA",
    "zip_code": "",
    "latitude": 0.0,
    "longitude": 0.0,
    "type": "retail",
    "last_verified": "2024-01-15",
    "is_active": true
  },
  {
    "id": "kroger_Q00643",
    "retailer": "Kroger",
    "machine_id": "Q00643",
    "name": "Kroger",
    "address": "4155 Lawrenceville Hwy NW",
    "city": "Lilburn",
    "state": "GA",
    "zip_code": "",
    "latitude": 0.0,
    "longitude": 0.0,
    "type": "retail",
    "last_verified": "2024-01-15",
    "is_active": true
  },
  {
    "id": "kroger_Q00790",
    "retailer": "Kroger",
    "machine_id": "Q00790",
    "name": "Kroger",
    "address": "3600 Dallas Hwy SW",
    "city": "Marietta",
    "state": "GA",
    "zip_code": "",
    "latitude": 0.0,
    "longitude": 0.0,
    "type": "retail",
    "last_verified": "2024-01-15",
    "is_active": true
  },
  {
    "id": "kroger_Q01917",
    "retailer": "Kroger",
    "machine_id": "Q01917",
    "name": "Kroger",
    "address": "2000 GA-155 N",
    "city": "McDonough",
    "state": "GA",
    "zip_code": "",
    "latitude": 0.0,
    "longitude": 0.0,
    "type": "retail",
    "last_verified": "2024-01-15",
    "is_active": true
  },
  {
    "id": "kroger_Q00480",
    "retailer": "Kroger",
    "machine_id": "Q00480",
    "name": "Kroger",
    "address": "1751 Newnan Xing Blvd E",
    "city": "Newnan",
    "state": "GA",
    "zip_code": "",
    "latitude": 0.0,
    "longitude": 0.0,
    "type": "retail",
    "last_verified": "2024-01-15",
    "is_active": true
  },
  {
    "id": "kroger_Q01074",
    "retailer": "Kroger",
    "machine_id": "Q01074",
    "name": "Kroger",
    "address": "3150 GA-34 E",
    "city": "Newnan",
    "state": "GA",
    "zip_code": "",
    "latitude": 0.0,
    "longitude": 0.0,
    "type": "retail",
    "last_verified": "2024-01-15",
    "is_active": true
  },
  {
    "id": "kroger_Q01234",
    "retailer": "Kroger",
    "machine_id": "Q01234",
    "name": "Kroger",
    "address": "1670 Scenic Hwy N",
    "city": "Snellville",
    "state": "GA",
    "zip_code": "",
    "latitude": 0.0,
    "longitude": 0.0,
    "type": "retail",
    "last_verified": "2024-01-15",
    "is_active": true
  },
  {
    "id": "kroger_Q01075",
    "retailer": "Kroger",
    "machine_id": "Q01075",
    "name": "Kroger",
    "address": "3618 Hwy 138 SE",
    "city": "Stockbridge",
    "state": "GA",
    "zip_code": "",
    "latitude": 0.0,
    "longitude": 0.0,
    "type": "retail",
    "last_verified": "2024-01-15",
    "is_active": true
  },
  {
    "id": "kroger_Q01028",
    "retailer": "Kroger",
    "machine_id": "Q01028",
    "name": "Kroger",
    "address": "12050 GA-92 Ste 112",
    "city": "Woodstock",
    "state": "GA",
    "zip_code": "",
    "latitude": 0.0,
    "longitude": 0.0,
    "type": "retail",
    "last_verified": "2024-01-15",
    "is_active": true
  },
  {
    "id": "food 4 less_Q01737",
    "retailer": "Food 4 Less",
    "machine_id": "Q01737",
    "name": "Food 4 Less",
    "address": "2400 W Main St",
    "city": "Evanston",
    "state": "IL",
    "zip_code": "",
    "latitude": 0.0,
    "longitude": 0.0,
    "type": "retail",
    "last_verified": "2024-01-15",
    "is_active": true
  },
  {
    "id": "jewel-osco_Q00579",
    "retailer": "Jewel-Osco",
    "machine_id": "Q00579",
    "name": "Jewel-Osco",
    "address": "21164 S LaGrange Rd",
    "city": "Frankfort",
    "state": "IL",
    "zip_code": "",
    "latitude": 0.0,
    "longitude": 0.0,
    "type": "retail",
    "last_verified": "2024-01-15",
    "is_active": true
  },
  {
    "id": "woodman's market_Q01203",
    "retailer": "Woodman's Market",
    "machine_id": "Q01203",
    "name": "Woodman's Market",
    "address": "27555 W IL-120",
    "city": "Lakemoor",
    "state": "IL",
    "zip_code": "",
    "latitude": 0.0,
    "longitude": 0.0,
    "type": "retail",
    "last_verified": "2024-01-15",
    "is_active": true
  },
  {
    "id": "food 4 less_Q01745",
    "retailer": "Food 4 Less",
    "machine_id": "Q01745",
    "name": "Food 4 Less",
    "address": "2501 W North Ave",
    "city": "Melrose Park",
    "state": "IL",
    "zip_code": "",
    "latitude": 0.0,
    "longitude": 0.0,
    "type": "retail",
    "last_verified": "2024-01-15",
    "is_active": true
  },
  {
    "id": "jewel-osco_Q01437",
    "retailer": "Jewel-Osco",
    "machine_id": "Q01437",
    "name": "Jewel-Osco",
    "address": "13460 S Rte 59",
    "city": "Plainfield",
    "state": "IL",
    "zip_code": "",
    "latitude": 0.0,
    "longitude": 0.0,
    "type": "retail",
    "last_verified": "2024-01-15",
    "is_active": true
  },
  {
    "id": "jewel-osco_Q00580",
    "retailer": "Jewel-Osco",
    "machine_id": "Q00580",
    "name": "Jewel-Osco",
    "address": "17117 S Harlem Ave",
    "city": "Tinley Park",
    "state": "IL",
    "zip_code": "",
    "latitude": 0.0,
    "longitude": 0.0,
    "type": "retail",
    "last_verified": "2024-01-15",
    "is_active": true
  },
  {
    "id": "kroger_Q01779",
    "retailer": "Kroger",
    "machine_id": "Q01779",
    "name": "Kroger",
    "address": "5961 N State Rd 135",
    "city": "Greenwood",
    "state": "IN",
    "zip_code": "",
    "latitude": 0.0,
    "longitude": 0.0,
    "type": "retail",
    "last_verified": "2024-01-15",
    "is_active": true
  },
  {
    "id": "kroger_Q00527",
    "retailer": "Kroger",
    "machine_id": "Q00527",
    "name": "Kroger",
    "address": "680 Twin Aire Dr",
    "city": "Indianapolis",
    "state": "IN",
    "zip_code": "",
    "latitude": 0.0,
    "longitude": 0.0,
    "type": "retail",
    "last_verified": "2024-01-15",
    "is_active": true
  },
  {
    "id": "safeway_Q01554",
    "retailer": "Safeway",
    "machine_id": "Q01554",
    "name": "Safeway",
    "address": "15916 S Crain Hwy",
    "city": "Brandywine",
    "state": "MD",
    "zip_code": "",
    "latitude": 0.0,
    "longitude": 0.0,
    "type": "grocery",
    "last_verified": "2024-01-15",
    "is_active": true
  },
  {
    "id": "safeway_Q02079",
    "retailer": "Safeway",
    "machine_id": "Q02079",
    "name": "Safeway",
    "address": "5485 Harpers Farm Rd A",
    "city": "Columbia",
    "state": "MD",
    "zip_code": "",
    "latitude": 0.0,
    "longitude": 0.0,
    "type": "grocery",
    "last_verified": "2024-01-15",
    "is_active": true
  },
  {
    "id": "safeway_Q02079",
    "retailer": "Safeway",
    "machine_id": "Q02079",
    "name": "Safeway",
    "address": "5485 Harpers Farm Rd A",
    "city": "Columbia",
    "state": "MD",
    "zip_code": "",
    "latitude": 0.0,
    "longitude": 0.0,
    "type": "grocery",
    "last_verified": "2024-01-15",
    "is_active": true
  },
  {
    "id": "shaw's_Q01567",
    "retailer": "Shaw's",
    "machine_id": "Q01567",
    "name": "Shaw's",
    "address": "690 Depot St",
    "city": "North Easton",
    "state": "MA",
    "zip_code": "",
    "latitude": 0.0,
    "longitude": 0.0,
    "type": "retail",
    "last_verified": "2024-01-15",
    "is_active": true
  },
  {
    "id": "shaw's_Q01760",
    "retailer": "Shaw's",
    "machine_id": "Q01760",
    "name": "Shaw's",
    "address": "300 New State Hwy",
    "city": "Raynham",
    "state": "MA",
    "zip_code": "",
    "latitude": 0.0,
    "longitude": 0.0,
    "type": "retail",
    "last_verified": "2024-01-15",
    "is_active": true
  },
  {
    "id": "kroger_Q00885",
    "retailer": "Kroger",
    "machine_id": "Q00885",
    "name": "Kroger",
    "address": "30935 Five Mile Rd",
    "city": "Livonia",
    "state": "MI",
    "zip_code": "",
    "latitude": 0.0,
    "longitude": 0.0,
    "type": "retail",
    "last_verified": "2024-01-15",
    "is_active": true
  },
  {
    "id": "kroger_Q01353",
    "retailer": "Kroger",
    "machine_id": "Q01353",
    "name": "Kroger",
    "address": "64660 Van Dyke Ave",
    "city": "Washington",
    "state": "MI",
    "zip_code": "",
    "latitude": 0.0,
    "longitude": 0.0,
    "type": "retail",
    "last_verified": "2024-01-15",
    "is_active": true
  },
  {
    "id": "kroger_Q00673",
    "retailer": "Kroger",
    "machine_id": "Q00673",
    "name": "Kroger",
    "address": "5161 Hampsted Village Center Way",
    "city": "New Albany",
    "state": "OH",
    "zip_code": "",
    "latitude": 0.0,
    "longitude": 0.0,
    "type": "retail",
    "last_verified": "2024-01-15",
    "is_active": true
  },
  {
    "id": "kroger_Q01058",
    "retailer": "Kroger",
    "machine_id": "Q01058",
    "name": "Kroger",
    "address": "12116 Sycamore Trace",
    "city": "Plain City",
    "state": "OH",
    "zip_code": "",
    "latitude": 0.0,
    "longitude": 0.0,
    "type": "retail",
    "last_verified": "2024-01-15",
    "is_active": true
  },
  {
    "id": "fred meyer_Q00847",
    "retailer": "Fred Meyer",
    "machine_id": "Q00847",
    "name": "Fred Meyer",
    "address": "22075 NW NE Imbrie Dr",
    "city": "Hillsboro",
    "state": "OR",
    "zip_code": "",
    "latitude": 0.0,
    "longitude": 0.0,
    "type": "retail",
    "last_verified": "2024-01-15",
    "is_active": true
  },
  {
    "id": "albertsons_Q00949",
    "retailer": "Albertsons",
    "machine_id": "Q00949",
    "name": "Albertsons",
    "address": "7500 SW Baseline Rd",
    "city": "Hillsboro",
    "state": "OR",
    "zip_code": "",
    "latitude": 0.0,
    "longitude": 0.0,
    "type": "grocery",
    "last_verified": "2024-01-15",
    "is_active": true
  },
  {
    "id": "winco foods_Q00716",
    "retailer": "WinCo Foods",
    "machine_id": "Q00716",
    "name": "WinCo Foods",
    "address": "2585 NE OR-99W",
    "city": "McMinnville",
    "state": "OR",
    "zip_code": "",
    "latitude": 0.0,
    "longitude": 0.0,
    "type": "grocery",
    "last_verified": "2024-01-15",
    "is_active": true
  },
  {
    "id": "safeway_Q00837",
    "retailer": "Safeway",
    "machine_id": "Q00837",
    "name": "Safeway",
    "address": "2490 N OR-99W",
    "city": "Mcminnville",
    "state": "OR",
    "zip_code": "",
    "latitude": 0.0,
    "longitude": 0.0,
    "type": "grocery",
    "last_verified": "2024-01-15",
    "is_active": true
  },
  {
    "id": "albertsons_Q01128",
    "retailer": "Albertsons",
    "machine_id": "Q01128",
    "name": "Albertsons",
    "address": "5755 S Main St",
    "city": "Springfield",
    "state": "OR",
    "zip_code": "",
    "latitude": 0.0,
    "longitude": 0.0,
    "type": "grocery",
    "last_verified": "2024-01-15",
    "is_active": true
  },
  {
    "id": "acme markets_Q01588",
    "retailer": "Acme Markets",
    "machine_id": "Q01588",
    "name": "Acme Markets",
    "address": "3200-09 Red Lion Rd",
    "city": "Philadelphia",
    "state": "PA",
    "zip_code": "",
    "latitude": 0.0,
    "longitude": 0.0,
    "type": "retail",
    "last_verified": "2024-01-15",
    "is_active": true
  },
  {
    "id": "acme markets_Q01995",
    "retailer": "Acme Markets",
    "machine_id": "Q01995",
    "name": "Acme Markets",
    "address": "2101-41 Cottman Ave",
    "city": "Philadelphia",
    "state": "PA",
    "zip_code": "",
    "latitude": 0.0,
    "longitude": 0.0,
    "type": "retail",
    "last_verified": "2024-01-15",
    "is_active": true
  },
  {
    "id": "acme markets_Q00529",
    "retailer": "Acme Markets",
    "machine_id": "Q00529",
    "name": "Acme Markets",
    "address": "800 Second Street Pike",
    "city": "Richboro",
    "state": "PA",
    "zip_code": "",
    "latitude": 0.0,
    "longitude": 0.0,
    "type": "retail",
    "last_verified": "2024-01-15",
    "is_active": true
  },
  {
    "id": "shaw's_Q01769",
    "retailer": "Shaw's",
    "machine_id": "Q01769",
    "name": "Shaw's",
    "address": "186 County Rd",
    "city": "Barrington",
    "state": "RI",
    "zip_code": "",
    "latitude": 0.0,
    "longitude": 0.0,
    "type": "retail",
    "last_verified": "2024-01-15",
    "is_active": true
  },
  {
    "id": "shaw's_Q01773",
    "retailer": "Shaw's",
    "machine_id": "Q01773",
    "name": "Shaw's",
    "address": "8 Chapel View Blvd",
    "city": "Cranston",
    "state": "RI",
    "zip_code": "",
    "latitude": 0.0,
    "longitude": 0.0,
    "type": "retail",
    "last_verified": "2024-01-15",
    "is_active": true
  },
  {
    "id": "shaw's_Q01574",
    "retailer": "Shaw's",
    "machine_id": "Q01574",
    "name": "Shaw's",
    "address": "1050 Willett Ave",
    "city": "Riverside",
    "state": "RI",
    "zip_code": "",
    "latitude": 0.0,
    "longitude": 0.0,
    "type": "retail",
    "last_verified": "2024-01-15",
    "is_active": true
  },
  {
    "id": "kroger_Q01017",
    "retailer": "Kroger",
    "machine_id": "Q01017",
    "name": "Kroger",
    "address": "463 Sam Ridley Pkwy W",
    "city": "Smyrna",
    "state": "TN",
    "zip_code": "",
    "latitude": 0.0,
    "longitude": 0.0,
    "type": "retail",
    "last_verified": "2024-01-15",
    "is_active": true
  },
  {
    "id": "h-e-b_Q01649",
    "retailer": "H-E-B",
    "machine_id": "Q01649",
    "name": "H-E-B",
    "address": "12400 State Hwy 71 W",
    "city": "Bee Cave",
    "state": "TX",
    "zip_code": "",
    "latitude": 0.0,
    "longitude": 0.0,
    "type": "retail",
    "last_verified": "2024-01-15",
    "is_active": true
  },
  {
    "id": "albertsons_Q00953",
    "retailer": "Albertsons",
    "machine_id": "Q00953",
    "name": "Albertsons",
    "address": "4351 FM2181",
    "city": "Corinth",
    "state": "TX",
    "zip_code": "",
    "latitude": 0.0,
    "longitude": 0.0,
    "type": "grocery",
    "last_verified": "2024-01-15",
    "is_active": true
  },
  {
    "id": "kroger_Q00881",
    "retailer": "Kroger",
    "machine_id": "Q00881",
    "name": "Kroger",
    "address": "1001 N Interstate 35 E Rd STE 500",
    "city": "DeSoto",
    "state": "TX",
    "zip_code": "",
    "latitude": 0.0,
    "longitude": 0.0,
    "type": "retail",
    "last_verified": "2024-01-15",
    "is_active": true
  },
  {
    "id": "kroger_Q00402",
    "retailer": "Kroger",
    "machine_id": "Q00402",
    "name": "Kroger",
    "address": "12400 Farm to Market 1960 Rd W",
    "city": "Houston",
    "state": "TX",
    "zip_code": "",
    "latitude": 0.0,
    "longitude": 0.0,
    "type": "retail",
    "last_verified": "2024-01-15",
    "is_active": true
  },
  {
    "id": "kroger_Q00566",
    "retailer": "Kroger",
    "machine_id": "Q00566",
    "name": "Kroger",
    "address": "9475 Farm to Market 1960 Bypass Rd W",
    "city": "Humble",
    "state": "TX",
    "zip_code": "",
    "latitude": 0.0,
    "longitude": 0.0,
    "type": "retail",
    "last_verified": "2024-01-15",
    "is_active": true
  },
  {
    "id": "kroger_Q01879",
    "retailer": "Kroger",
    "machine_id": "Q01879",
    "name": "Kroger",
    "address": "25651 US-59 N",
    "city": "Kingwood",
    "state": "TX",
    "zip_code": "",
    "latitude": 0.0,
    "longitude": 0.0,
    "type": "retail",
    "last_verified": "2024-01-15",
    "is_active": true
  },
  {
    "id": "kroger_Q00551",
    "retailer": "Kroger",
    "machine_id": "Q00551",
    "name": "Kroger",
    "address": "2750 E League City Pkwy",
    "city": "League City",
    "state": "TX",
    "zip_code": "",
    "latitude": 0.0,
    "longitude": 0.0,
    "type": "retail",
    "last_verified": "2024-01-15",
    "is_active": true
  },
  {
    "id": "albertsons_Q00482",
    "retailer": "Albertsons",
    "machine_id": "Q00482",
    "name": "Albertsons",
    "address": "1500 S Beltline Rd",
    "city": "Mesquite",
    "state": "TX",
    "zip_code": "",
    "latitude": 0.0,
    "longitude": 0.0,
    "type": "grocery",
    "last_verified": "2024-01-15",
    "is_active": true
  },
  {
    "id": "h-e-b_Q00441",
    "retailer": "H-E-B",
    "machine_id": "Q00441",
    "name": "H-E-B",
    "address": "10161 W Grand Pkwy S",
    "city": "Richmond",
    "state": "TX",
    "zip_code": "",
    "latitude": 0.0,
    "longitude": 0.0,
    "type": "retail",
    "last_verified": "2024-01-15",
    "is_active": true
  },
  {
    "id": "h-e-b_Q01593",
    "retailer": "H-E-B",
    "machine_id": "Q01593",
    "name": "H-E-B",
    "address": "9211 Farm to Market Rd 723",
    "city": "Richmond",
    "state": "TX",
    "zip_code": "",
    "latitude": 0.0,
    "longitude": 0.0,
    "type": "retail",
    "last_verified": "2024-01-15",
    "is_active": true
  },
  {
    "id": "kroger_Q01835",
    "retailer": "Kroger",
    "machine_id": "Q01835",
    "name": "Kroger",
    "address": "25050 FM 1093",
    "city": "Richmond",
    "state": "TX",
    "zip_code": "",
    "latitude": 0.0,
    "longitude": 0.0,
    "type": "retail",
    "last_verified": "2024-01-15",
    "is_active": true
  },
  {
    "id": "kroger_Q00550",
    "retailer": "Kroger",
    "machine_id": "Q00550",
    "name": "Kroger",
    "address": "3135 FM 528 Rd",
    "city": "Webster",
    "state": "TX",
    "zip_code": "",
    "latitude": 0.0,
    "longitude": 0.0,
    "type": "retail",
    "last_verified": "2024-01-15",
    "is_active": true
  },
  {
    "id": "smith's_Q00795",
    "retailer": "Smith's",
    "machine_id": "Q00795",
    "name": "Smith's",
    "address": "4080 W 9000 S",
    "city": "West Jordan",
    "state": "UT",
    "zip_code": "",
    "latitude": 0.0,
    "longitude": 0.0,
    "type": "retail",
    "last_verified": "2024-01-15",
    "is_active": true
  },
  {
    "id": "smith's_Q00802",
    "retailer": "Smith's",
    "machine_id": "Q00802",
    "name": "Smith's",
    "address": "5620 W 4100 S",
    "city": "West Valley City",
    "state": "UT",
    "zip_code": "",
    "latitude": 0.0,
    "longitude": 0.0,
    "type": "retail",
    "last_verified": "2024-01-15",
    "is_active": true
  },
  {
    "id": "safeway_Q01433",
    "retailer": "Safeway",
    "machine_id": "Q01433",
    "name": "Safeway",
    "address": "5980 Kingstowne Towne Ctr",
    "city": "Alexandria",
    "state": "VA",
    "zip_code": "",
    "latitude": 0.0,
    "longitude": 0.0,
    "type": "grocery",
    "last_verified": "2024-01-15",
    "is_active": true
  },
  {
    "id": "safeway_Q01434",
    "retailer": "Safeway",
    "machine_id": "Q01434",
    "name": "Safeway",
    "address": "1624 Belle View Blvd",
    "city": "Alexandria",
    "state": "VA",
    "zip_code": "",
    "latitude": 0.0,
    "longitude": 0.0,
    "type": "grocery",
    "last_verified": "2024-01-15",
    "is_active": true
  },
  {
    "id": "safeway_Q01546",
    "retailer": "Safeway",
    "machine_id": "Q01546",
    "name": "Safeway",
    "address": "12821 Braemar Village Pz",
    "city": "Bristow",
    "state": "VA",
    "zip_code": "",
    "latitude": 0.0,
    "longitude": 0.0,
    "type": "grocery",
    "last_verified": "2024-01-15",
    "is_active": true
  },
  {
    "id": "safeway_Q01770",
    "retailer": "Safeway",
    "machine_id": "Q01770",
    "name": "Safeway",
    "address": "20500 Olympic Pl NE",
    "city": "Arlington",
    "state": "WA",
    "zip_code": "",
    "latitude": 0.0,
    "longitude": 0.0,
    "type": "grocery",
    "last_verified": "2024-01-15",
    "is_active": true
  },
  {
    "id": "fresh_Q00152",
    "retailer": "Fresh",
    "machine_id": "Q00152",
    "name": "Fresh",
    "address": "3290 146th Pl SE Suite A",
    "city": "Bellevue",
    "state": "WA",
    "zip_code": "",
    "latitude": 0.0,
    "longitude": 0.0,
    "type": "retail",
    "last_verified": "2024-01-15",
    "is_active": true
  },
  {
    "id": "fresh_Q00152",
    "retailer": "Fresh",
    "machine_id": "Q00152",
    "name": "Fresh",
    "address": "3290 146th Pl SE Suite A",
    "city": "Bellevue",
    "state": "WA",
    "zip_code": "",
    "latitude": 0.0,
    "longitude": 0.0,
    "type": "retail",
    "last_verified": "2024-01-15",
    "is_active": true
  }
]